$GPRMC,170904.935,V,3854.928,N,07702.497,W,78.4,1.83,021116,,E*42
$GPGGA,170905.935,3854.928,N,07702.497,W,0,00,,,M,,M,,*55
$GPGLL,3854.928,N,07702.497,W,170906.935,V*36
$GPGSA,A,2,14,12,04,16,17,11,,,,,,,0.1,0.0,0.9*38
$GPGSV,2,1,06,14,14,200,30,12,43,040,43,04,79,266,23,16,15,261,82*7F
$GPGSV,2,2,06,17,88,095,74,11,39,185,73*74
$GPRMC,170910.935,V,3854.926,N,07702.497,W,52.2,1.90,021116,,E*45
$GPGGA,170911.935,3854.926,N,07702.497,W,0,04,0.0,,M,,M,,*74
$GPGLL,3854.926,N,07702.497,W,170912.935,V*3D
$GPGSA,A,3,14,12,04,16,17,11,,,,,,,0.4,0.3,0.6*30
$GPGSV,2,1,06,14,26,063,21,12,61,195,15,04,15,021,70,16,62,143,57*75
$GPGSV,2,2,06,17,07,160,17,11,71,259,73*73
$GPRMC,170916.935,V,3854.924,N,07702.496,W,43.9,1.92,021116,,E*49
$GPGGA,170917.935,3854.924,N,07702.496,W,0,04,0.3,,M,,M,,*72
$GPGLL,3854.924,N,07702.496,W,170918.935,V*34
$GPGSA,A,2,14,12,04,16,17,11,,,,,,,0.2,1.0,0.8*3B
$GPGSV,2,1,06,14,20,226,15,12,05,177,85,04,22,233,45,16,66,250,54*75
$GPGSV,2,2,06,17,34,111,16,11,16,335,79*74
$GPRMC,170922.935,V,3854.923,N,07702.496,W,53.6,1.90,021116,,E*45
$GPGGA,170923.935,3854.923,N,07702.496,W,0,04,1.0,,M,,M,,*70
$GPGLL,3854.923,N,07702.496,W,170924.935,V*3C
$GPGSA,A,3,14,12,04,16,17,11,,,,,,,0.0,0.1,0.9*39
$GPGSV,2,1,06,14,13,171,32,12,63,065,89,04,27,307,61,16,71,338,29*79
$GPGSV,2,2,06,17,89,091,20,11,10,113,49*7D
$GPRMC,170928.935,V,3854.921,N,07702.496,W,20.8,1.82,021116,,E*44
$GPGGA,170929.935,3854.921,N,07702.496,W,0,04,0.1,,M,,M,,*78
$GPGLL,3854.921,N,07702.496,W,170930.935,V*3B
$GPGSA,A,2,14,12,04,16,17,11,,,,,,,0.3,0.2,0.6*37
$GPGSV,2,1,06,14,24,240,23,12,55,030,27,04,19,282,64,16,53,184,20*75
$GPGSV,2,2,06,17,69,279,82,11,39,303,62*7E
$GPRMC,170934.935,V,3854.919,N,07702.495,W,79.4,1.85,021116,,E*46
$GPGGA,170935.935,3854.919,N,07702.495,W,0,04,0.2,,M,,M,,*7E
$GPGLL,3854.919,N,07702.495,W,170936.935,V*35
$GPGSA,A,2,14,12,04,16,17,11,,,,,,,0.1,0.2,0.5*36
$GPGSV,2,1,06,14,30,290,64,12,71,271,40,04,84,179,22,16,08,272,15*7D
$GPGSV,2,2,06,17,77,342,37,11,07,303,81*76
$GPRMC,170940.935,V,3854.917,N,07702.494,W,67.1,1.78,021116,,E*42
$GPGGA,170941.935,3854.917,N,07702.494,W,0,04,0.2,,M,,M,,*72
$GPGLL,3854.917,N,07702.494,W,170942.935,V*39
$GPGSA,A,2,14,12,04,16,17,11,,,,,,,0.2,0.0,0.5*37
$GPGSV,2,1,06,14,57,216,86,12,42,009,81,04,22,132,42,16,14,130,23*76
$GPGSV,2,2,06,17,75,072,38,11,26,070,29*7D
$GPRMC,170946.935,V,3854.916,N,07702.494,W,82.1,1.87,021116,,E*4E
$GPGGA,170947.935,3854.916,N,07702.494,W,0,04,0.0,,M,,M,,*77
$GPGLL,3854.916,N,07702.494,W,170948.935,V*32
$GPGSA,A,3,14,12,04,16,17,11,,,,,,,0.7,0.8,0.4*3A
$GPGSV,2,1,06,14,51,074,25,12,58,268,55,04,08,089,86,16,42,320,31*7A
$GPGSV,2,2,06,17,50,059,70,11,31,331,28*7E
$GPRMC,170952.935,V,3854.914,N,07702.494,W,95.7,1.92,021116,,E*4D
$GPGGA,170953.935,3854.914,N,07702.494,W,0,04,0.8,,M,,M,,*78
$GPGLL,3854.914,N,07702.494,W,170954.935,V*3D
$GPGSA,A,3,14,12,04,16,17,11,,,,,,,0.6,1.0,0.6*30
$GPGSV,2,1,06,14,13,026,76,12,18,292,42,04,89,218,52,16,58,230,81*70
$GPGSV,2,2,06,17,41,061,30,11,64,158,22*76
$GPRMC,170958.935,V,3854.912,N,07702.494,W,62.5,1.95,021116,,E*4C
$GPGGA,170959.935,3854.912,N,07702.494,W,0,04,1.0,,M,,M,,*7D
$GPGLL,3854.912,N,07702.494,W,171000.935,V*32
$GPGSA,A,2,14,12,04,16,17,11,,,,,,,0.1,0.7,0.0*36
$GPGSV,2,1,06,14,27,240,22,12,28,000,17,04,10,337,61,16,58,295,61*73
$GPGSV,2,2,06,17,85,024,31,11,09,077,39*73
$GPRMC,171004.935,V,3854.910,N,07702.493,W,43.3,1.86,021116,,E*4F
$GPGGA,171005.935,3854.910,N,07702.493,W,0,04,0.7,,M,,M,,*7F
$GPGLL,3854.910,N,07702.493,W,171006.935,V*31
$GPGSA,A,2,14,12,04,16,17,11,,,,,,,0.8,0.2,0.7*3D
$GPGSV,2,1,06,14,61,143,57,12,67,301,80,04,40,184,59,16,78,135,78*73
$GPGSV,2,2,06,17,26,299,55,11,75,355,62*7A
$GPRMC,171010.935,V,3854.909,N,07702.493,W,18.1,1.88,021116,,E*40
$GPGGA,171011.935,3854.909,N,07702.493,W,0,04,0.2,,M,,M,,*77
$GPGLL,3854.909,N,07702.493,W,171012.935,V*3C
$GPGSA,A,2,14,12,04,16,17,11,,,,,,,0.0,0.7,0.7*30
$GPGSV,2,1,06,14,77,152,84,12,73,227,36,04,32,192,47,16,58,006,29*7D
$GPGSV,2,2,06,17,47,035,75,11,27,249,33*74
$GPRMC,171016.935,V,3854.907,N,07702.493,W,96.2,1.83,021116,,E*46
$GPGGA,171017.935,3854.907,N,07702.493,W,0,04,0.7,,M,,M,,*7A
$GPGLL,3854.907,N,07702.493,W,171018.935,V*38
$GPGSA,A,3,14,12,04,16,17,11,,,,,,,0.8,0.2,0.6*3D
$GPGSV,2,1,06,14,42,322,51,12,08,163,44,04,20,149,88,16,57,006,58*73
$GPGSV,2,2,06,17,85,192,37,11,68,345,73*72
$GPRMC,171022.935,V,3854.905,N,07702.492,W,11.2,1.89,021116,,E*47
$GPGGA,171023.935,3854.905,N,07702.492,W,0,04,0.2,,M,,M,,*7B
$GPGLL,3854.905,N,07702.492,W,171024.935,V*34
$GPGSA,A,2,14,12,04,16,17,11,,,,,,,0.1,0.5,0.4*30
$GPGSV,2,1,06,14,83,061,20,12,55,016,62,04,39,189,41,16,31,139,32*73
$GPGSV,2,2,06,17,06,155,86,11,20,108,62*7F
$GPRMC,171028.935,V,3854.903,N,07702.492,W,79.8,1.84,021116,,E*42
$GPGGA,171029.935,3854.903,N,07702.492,W,0,04,0.5,,M,,M,,*70
$GPGLL,3854.903,N,07702.492,W,171030.935,V*37
$GPGSA,A,2,14,12,04,16,17,11,,,,,,,0.9,0.7,0.7*39
$GPGSV,2,1,06,14,79,171,32,12,41,264,34,04,20,251,65,16,52,095,32*7E
$GPGSV,2,2,06,17,37,175,43,11,34,072,87*74
$GPRMC,171034.935,V,3854.902,N,07702.491,W,66.7,1.78,021116,,E*4F
$GPGGA,171035.935,3854.902,N,07702.491,W,0,04,0.7,,M,,M,,*7D
$GPGLL,3854.902,N,07702.491,W,171036.935,V*33
$GPGSA,A,2,14,12,04,16,17,11,,,,,,,0.5,0.4,0.1*30
$GPGSV,2,1,06,14,70,012,34,12,44,335,68,04,58,111,64,16,60,342,88*7C
$GPGSV,2,2,06,17,63,021,17,11,82,168,68*72
$GPRMC,171040.935,V,3854.900,N,07702.490,W,75.4,1.71,021116,,E*47
$GPGGA,171041.935,3854.900,N,07702.490,W,0,04,0.4,,M,,M,,*7E
$GPGLL,3854.900,N,07702.490,W,171042.935,V*33
$GPGSA,A,2,14,12,04,16,17,11,,,,,,,0.3,0.4,0.7*30
$GPGSV,2,1,06,14,46,069,83,12,10,290,51,04,87,199,35,16,12,345,21*7B
$GPGSV,2,2,06,17,67,184,57,11,61,191,26*7D
$GPRMC,171046.935,V,3854.899,N,07702.489,W,27.9,1.60,021116,,E*42
$GPGGA,171047.935,3854.899,N,07702.489,W,0,04,0.4,,M,,M,,*71
$GPGLL,3854.899,N,07702.489,W,171048.935,V*30
$GPGSA,A,3,14,12,04,16,17,11,,,,,,,0.6,0.8,0.3*3C
$GPGSV,2,1,06,14,34,199,83,12,83,031,59,04,31,197,33,16,73,122,56*7A
$GPGSV,2,2,06,17,35,335,66,11,35,202,81*75
$GPRMC,171052.935,V,3854.897,N,07702.488,W,6.5,1.66,021116,,E*71
$GPGGA,171053.935,3854.897,N,07702.488,W,0,04,0.8,,M,,M,,*77
$GPGLL,3854.897,N,07702.488,W,171054.935,V*32
$GPGSA,A,2,14,12,04,16,17,11,,,,,,,0.1,0.8,0.6*3F
$GPGSV,2,1,06,14,70,107,30,12,22,065,25,04,17,146,19,16,60,062,24*76
$GPGSV,2,2,06,17,88,111,82,11,48,121,57*7E
$GPRMC,171058.935,V,3854.895,N,07702.488,W,54.5,1.66,021116,,E*4E
$GPGGA,171059.935,3854.895,N,07702.488,W,0,04,0.8,,M,,M,,*7F
$GPGLL,3854.895,N,07702.488,W,171100.935,V*30
$GPGSA,A,3,14,12,04,16,17,11,,,,,,,0.5,0.7,0.9*3A
$GPGSV,2,1,06,14,10,066,84,12,42,244,16,04,41,068,54,16,22,003,24*78
$GPGSV,2,2,06,17,34,320,36,11,39,132,39*7A
$GPRMC,171104.935,V,3854.894,N,07702.487,W,40.7,1.66,021116,,E*4F
$GPGGA,171105.935,3854.894,N,07702.487,W,0,04,0.7,,M,,M,,*76
$GPGLL,3854.894,N,07702.487,W,171106.935,V*38
$GPGSA,A,3,14,12,04,16,17,11,,,,,,,0.3,0.0,0.0*32
$GPGSV,2,1,06,14,62,136,87,12,41,249,87,04,15,077,87,16,75,040,21*7D
$GPGSV,2,2,06,17,55,058,77,11,72,356,27*74
$GPRMC,171110.935,V,3854.892,N,07702.486,W,31.3,1.61,021116,,E*48
$GPGGA,171111.935,3854.892,N,07702.486,W,0,04,0.0,,M,,M,,*73
$GPGLL,3854.892,N,07702.486,W,171112.935,V*3A
$GPGSA,A,3,14,12,04,16,17,11,,,,,,,0.1,1.0,0.1*30
$GPGSV,2,1,06,14,17,067,65,12,64,011,42,04,57,221,48,16,59,057,45*79
$GPGSV,2,2,06,17,34,113,30,11,11,213,56*7D
$GPRMC,171116.935,V,3854.891,N,07702.485,W,97.0,1.70,021116,,E*41
$GPGGA,171117.935,3854.891,N,07702.485,W,0,04,1.0,,M,,M,,*74
$GPGLL,3854.891,N,07702.485,W,171118.935,V*30
$GPGSA,A,3,14,12,04,16,17,11,,,,,,,0.1,0.5,0.3*36
$GPGSV,2,1,06,14,10,210,39,12,50,324,66,04,52,149,70,16,47,095,49*7F
$GPGSV,2,2,06,17,58,058,74,11,57,048,49*79
$GPRMC,171122.935,V,3854.889,N,07702.484,W,26.4,1.70,021116,,E*40
$GPGGA,171123.935,3854.889,N,07702.484,W,0,04,0.5,,M,,M,,*7F
$GPGLL,3854.889,N,07702.484,W,171124.935,V*37
$GPGSA,A,3,14,12,04,16,17,11,,,,,,,0.2,0.2,0.3*32
$GPGSV,2,1,06,14,78,203,73,12,38,250,18,04,57,268,46,16,66,275,59*76
$GPGSV,2,2,06,17,56,041,54,11,81,198,33*77
$GPRMC,171128.935,V,3854.888,N,07702.483,W,1.1,1.80,021116,,E*73
$GPGGA,171129.935,3854.888,N,07702.483,W,0,04,0.2,,M,,M,,*74
$GPGLL,3854.888,N,07702.483,W,171130.935,V*34
$GPGSA,A,2,14,12,04,16,17,11,,,,,,,0.1,0.2,0.8*3B
$GPGSV,2,1,06,14,83,220,28,12,15,225,32,04,89,107,76,16,10,337,77*78
$GPGSV,2,2,06,17,32,132,19,11,23,313,48*7C
$GPRMC,171134.935,V,3854.886,N,07702.483,W,77.2,1.75,021116,,E*48
$GPGGA,171135.935,3854.886,N,07702.483,W,0,04,0.2,,M,,M,,*77
$GPGLL,3854.886,N,07702.483,W,171136.935,V*3C
$GPGSA,A,3,14,12,04,16,17,11,,,,,,,0.1,0.2,0.0*32
$GPGSV,2,1,06,14,67,082,81,12,82,116,18,04,25,185,81,16,43,006,23*7C
$GPGSV,2,2,06,17,33,154,54,11,87,019,24*79
$GPRMC,171140.935,V,3854.885,N,07702.481,W,62.1,1.51,021116,,E*4B
$GPGGA,171141.935,3854.885,N,07702.481,W,0,04,0.2,,M,,M,,*75
$GPGLL,3854.885,N,07702.481,W,171142.935,V*3E
$GPGSA,A,2,14,12,04,16,17,11,,,,,,,0.7,0.8,0.2*3D
$GPGSV,2,1,06,14,52,011,22,12,86,001,74,04,77,142,62,16,31,072,74*75
$GPGSV,2,2,06,17,43,265,58,11,36,241,48*7C
$GPRMC,171146.935,V,3854.883,N,07702.480,W,5.6,1.62,021116,,E*7C
$GPGGA,171147.935,3854.883,N,07702.480,W,0,04,0.8,,M,,M,,*7E
$GPGLL,3854.883,N,07702.480,W,171148.935,V*33
$GPGSA,A,3,14,12,04,16,17,11,,,,,,,0.4,0.1,0.1*35
$GPGSV,2,1,06,14,74,013,76,12,40,255,81,04,81,333,37,16,18,007,64*74
$GPGSV,2,2,06,17,68,253,33,11,43,110,46*76
$GPRMC,171152.935,V,3854.882,N,07702.480,W,40.7,1.68,021116,,E*42
$GPGGA,171153.935,3854.882,N,07702.480,W,0,04,0.1,,M,,M,,*73
$GPGLL,3854.882,N,07702.480,W,171154.935,V*3F
$GPGSA,A,3,14,12,04,16,17,11,,,,,,,0.1,0.1,0.2*33
$GPGSV,2,1,06,14,36,158,67,12,76,300,63,04,14,105,52,16,42,187,55*78
$GPGSV,2,2,06,17,31,137,29,11,85,347,47*7B
$GPRMC,171158.935,V,3854.880,N,07702.479,W,16.3,1.66,021116,,E*45
$GPGGA,171159.935,3854.880,N,07702.479,W,0,04,0.1,,M,,M,,*7D
$GPGLL,3854.880,N,07702.479,W,171200.935,V*39
$GPGSA,A,3,14,12,04,16,17,11,,,,,,,0.6,0.2,0.6*33
$GPGSV,2,1,06,14,55,315,73,12,24,189,64,04,61,292,51,16,05,186,29*75
$GPGSV,2,2,06,17,50,227,51,11,74,218,80*7F
$GPRMC,171204.935,V,3854.878,N,07702.478,W,52.8,1.70,021116,,E*45
$GPGGA,171205.935,3854.878,N,07702.478,W,0,04,0.2,,M,,M,,*72
$GPGLL,3854.878,N,07702.478,W,171206.935,V*39
$GPGSA,A,2,14,12,04,16,17,11,,,,,,,0.0,0.0,0.7*37
$GPGSV,2,1,06,14,89,232,85,12,88,306,30,04,13,261,82,16,87,212,33*73
$GPGSV,2,2,06,17,28,152,27,11,09,262,20*7D
$GPRMC,171210.935,V,3854.877,N,07702.477,W,70.1,1.59,021116,,E*42
$GPGGA,171211.935,3854.877,N,07702.477,W,0,04,0.0,,M,,M,,*75
$GPGLL,3854.877,N,07702.477,W,171212.935,V*3C
$GPGSA,A,2,14,12,04,16,17,11,,,,,,,0.0,0.4,0.2*36
$GPGSV,2,1,06,14,80,214,78,12,39,209,65,04,12,185,46,16,13,318,83*75
$GPGSV,2,2,06,17,81,137,72,11,48,224,87*77
$GPRMC,171216.935,V,3854.875,N,07702.476,W,14.6,1.61,021116,,E*49
$GPGGA,171217.935,3854.875,N,07702.476,W,0,04,0.4,,M,,M,,*74
$GPGLL,3854.875,N,07702.476,W,171218.935,V*35
$GPGSA,A,2,14,12,04,16,17,11,,,,,,,0.9,0.4,1.0*3C
$GPGSV,2,1,06,14,59,084,25,12,51,093,38,04,32,066,75,16,65,176,81*72
$GPGSV,2,2,06,17,59,233,48,11,74,295,32*77
$GPRMC,171222.935,V,3854.874,N,07702.475,W,94.8,1.60,021116,,E*4B
$GPGGA,171223.935,3854.874,N,07702.475,W,0,04,0.4,,M,,M,,*71
$GPGLL,3854.874,N,07702.475,W,171224.935,V*38
$GPGSA,A,2,14,12,04,16,17,11,,,,,,,0.6,0.9,1.0*3E
$GPGSV,2,1,06,14,58,029,79,12,56,035,79,04,85,098,21,16,10,252,86*7F
$GPGSV,2,2,06,17,83,226,57,11,76,248,75*7B
$GPRMC,171228.935,V,3854.873,N,07702.473,W,47.3,1.55,021116,,E*43
$GPGGA,171229.935,3854.873,N,07702.473,W,0,04,0.9,,M,,M,,*77
$GPGLL,3854.873,N,07702.473,W,171230.935,V*3C
$GPGSA,A,3,14,12,04,16,17,11,,,,,,,0.3,0.3,0.7*36
$GPGSV,2,1,06,14,55,145,34,12,88,351,87,04,44,338,22,16,05,155,79*74
$GPGSV,2,2,06,17,29,267,49,11,43,124,56*7F
$GPRMC,171234.935,V,3854.871,N,07702.472,W,73.5,1.59,021116,,E*40
$GPGGA,171235.935,3854.871,N,07702.472,W,0,04,0.3,,M,,M,,*73
$GPGLL,3854.871,N,07702.472,W,171236.935,V*39
$GPGSA,A,2,14,12,04,16,17,11,,,,,,,0.4,0.8,0.9*35
$GPGSV,2,1,06,14,51,023,24,12,53,035,27,04,39,208,62,16,50,032,21*7C
$GPGSV,2,2,06,17,73,003,81,11,59,042,33*7D
$GPRMC,171240.935,V,3854.870,N,07702.471,W,14.3,1.38,021116,,E*41
$GPGGA,171241.935,3854.870,N,07702.471,W,0,04,0.8,,M,,M,,*79
$GPGLL,3854.870,N,07702.471,W,171242.935,V*38
$GPGSA,A,3,14,12,04,16,17,11,,,,,,,0.5,0.5,0.2*33
$GPGSV,2,1,06,14,23,116,80,12,32,337,82,04,64,134,70,16,46,037,78*70
$GPGSV,2,2,06,17,30,270,23,11,49,065,15*74
$GPRMC,171246.935,V,3854.869,N,07702.469,W,33.5,1.35,021116,,E*48
$GPGGA,171247.935,3854.869,N,07702.469,W,0,04,0.5,,M,,M,,*73
$GPGLL,3854.869,N,07702.469,W,171248.935,V*33
$GPGSA,A,2,14,12,04,16,17,11,,,,,,,0.2,0.8,0.5*3F
$GPGSV,2,1,06,14,39,168,54,12,80,328,59,04,43,144,84,16,61,220,52*7A
$GPGSV,2,2,06,17,89,145,67,11,54,318,61*75
$GPRMC,171252.935,V,3854.868,N,07702.468,W,4.1,1.32,021116,,E*7A
$GPGGA,171253.935,3854.868,N,07702.468,W,0,04,0.8,,M,,M,,*7B
$GPGLL,3854.868,N,07702.468,W,171254.935,V*3E
$GPGSA,A,2,14,12,04,16,17,11,,,,,,,0.6,0.5,0.2*31
$GPGSV,2,1,06,14,41,236,38,12,13,261,25,04,06,081,65,16,80,141,89*71
$GPGSV,2,2,06,17,76,149,81,11,33,208,82*7D
$GPRMC,171258.935,V,3854.867,N,07702.466,W,29.4,1.43,021116,,E*4D
$GPGGA,171259.935,3854.867,N,07702.466,W,0,04,0.5,,M,,M,,*7D
$GPGLL,3854.867,N,07702.466,W,171300.935,V*3F
$GPGSA,A,2,14,12,04,16,17,11,,,,,,,0.9,0.3,0.7*3D
$GPGSV,2,1,06,14,62,339,55,12,43,226,47,04,72,024,19,16,84,121,64*71
$GPGSV,2,2,06,17,29,187,27,11,18,354,55*72
$GPRMC,171304.935,V,3854.866,N,07702.465,W,27.5,1.43,021116,,E*48
$GPGGA,171305.935,3854.866,N,07702.465,W,0,04,0.3,,M,,M,,*71
$GPGLL,3854.866,N,07702.465,W,171306.935,V*3B
$GPGSA,A,2,14,12,04,16,17,11,,,,,,,0.3,0.4,0.8*3F
$GPGSV,2,1,06,14,35,199,24,12,16,288,56,04,61,016,15,16,71,031,50*7B
$GPGSV,2,2,06,17,59,051,27,11,48,111,61*7E
$GPRMC,171310.935,V,3854.865,N,07702.463,W,49.8,1.39,021116,,E*40
$GPGGA,171311.935,3854.865,N,07702.463,W,0,04,0.4,,M,,M,,*76
$GPGLL,3854.865,N,07702.463,W,171312.935,V*3B
$GPGSA,A,2,14,12,04,16,17,11,,,,,,,0.3,0.9,0.8*32
$GPGSV,2,1,06,14,15,201,33,12,57,080,79,04,56,214,26,16,19,176,47*71
$GPGSV,2,2,06,17,59,019,71,11,15,231,86*71
$GPRMC,171316.935,V,3854.864,N,07702.462,W,18.1,1.62,021116,,E*45
$GPGGA,171317.935,3854.864,N,07702.462,W,0,04,0.9,,M,,M,,*7D
$GPGLL,3854.864,N,07702.462,W,171318.935,V*31
$GPGSA,A,2,14,12,04,16,17,11,,,,,,,0.7,0.5,0.9*3B
$GPGSV,2,1,06,14,66,322,55,12,31,157,16,04,81,339,61,16,87,172,44*70
$GPGSV,2,2,06,17,17,292,73,11,09,006,18*74
$GPRMC,171322.935,V,3854.862,N,07702.461,W,27.8,1.51,021116,,E*42
$GPGGA,171323.935,3854.862,N,07702.461,W,0,04,0.5,,M,,M,,*73
$GPGLL,3854.862,N,07702.461,W,171324.935,V*3B
$GPGSA,A,2,14,12,04,16,17,11,,,,,,,0.3,0.3,0.1*31
$GPGSV,2,1,06,14,39,205,79,12,06,178,74,04,71,298,18,16,40,025,31*7C
$GPGSV,2,2,06,17,40,194,40,11,25,341,46*76
$GPRMC,171328.935,V,3854.861,N,07702.460,W,44.0,1.60,021116,,E*45
$GPGGA,171329.935,3854.861,N,07702.460,W,0,04,0.3,,M,,M,,*7D
$GPGLL,3854.861,N,07702.460,W,171330.935,V*3C
$GPGSA,A,3,14,12,04,16,17,11,,,,,,,0.2,0.8,0.3*38
$GPGSV,2,1,06,14,06,014,35,12,33,158,72,04,66,324,33,16,30,049,89*7F
$GPGSV,2,2,06,17,21,010,79,11,74,078,61*7E
$GPRMC,171334.935,V,3854.859,N,07702.459,W,42.5,1.61,021116,,E*4B
$GPGGA,171335.935,3854.859,N,07702.459,W,0,04,0.8,,M,,M,,*7A
$GPGLL,3854.859,N,07702.459,W,171336.935,V*3B
$GPGSA,A,2,14,12,04,16,17,11,,,,,,,0.7,0.4,0.1*32
$GPGSV,2,1,06,14,21,204,50,12,38,259,48,04,26,109,53,16,74,354,63*7E
$GPGSV,2,2,06,17,33,039,30,11,39,349,74*77
$GPRMC,171340.935,V,3854.858,N,07702.458,W,76.4,1.69,021116,,E*46
$GPGGA,171341.935,3854.858,N,07702.458,W,0,04,0.4,,M,,M,,*75
$GPGLL,3854.858,N,07702.458,W,171342.935,V*38
$GPGSA,A,2,14,12,04,16,17,11,,,,,,,0.9,0.2,0.6*3D
$GPGSV,2,1,06,14,51,264,73,12,13,198,33,04,80,069,27,16,48,032,88*74
$GPGSV,2,2,06,17,53,068,21,11,17,050,64*73
$GPRMC,171346.935,V,3854.856,N,07702.458,W,71.7,1.74,021116,,E*46
$GPGGA,171347.935,3854.856,N,07702.458,W,0,04,0.2,,M,,M,,*7B
$GPGLL,3854.856,N,07702.458,W,171348.935,V*3C
$GPGSA,A,2,14,12,04,16,17,11,,,,,,,0.5,0.6,0.8*3B
$GPGSV,2,1,06,14,47,134,83,12,24,124,60,04,06,156,63,16,81,313,72*7C
$GPGSV,2,2,06,17,37,128,50,11,87,046,79*70
$GPRMC,171352.935,V,3854.854,N,07702.457,W,41.1,1.82,021116,,E*42
$GPGGA,171353.935,3854.854,N,07702.457,W,0,04,0.6,,M,,M,,*77
$GPGLL,3854.854,N,07702.457,W,171354.935,V*3C
$GPGSA,A,2,14,12,04,16,17,11,,,,,,,0.2,0.7,0.6*33
$GPGSV,2,1,06,14,24,028,38,12,06,216,44,04,73,355,75,16,48,072,15*75
$GPGSV,2,2,06,17,79,128,57,11,28,075,73*72
$GPRMC,171358.935,V,3854.853,N,07702.456,W,8.1,1.72,021116,,E*7C
$GPGGA,171359.935,3854.853,N,07702.456,W,0,04,0.7,,M,,M,,*7A
$GPGLL,3854.853,N,07702.456,W,171400.935,V*3C
$GPGSA,A,3,14,12,04,16,17,11,,,,,,,0.7,0.6,0.6*36
$GPGSV,2,1,06,14,42,018,24,12,08,035,20,04,78,215,56,16,50,123,38*78
$GPGSV,2,2,06,17,55,301,33,11,51,138,72*70
$GPRMC,171404.935,V,3854.851,N,07702.455,W,31.3,1.62,021116,,E*4A
$GPGGA,171405.935,3854.851,N,07702.455,W,0,04,0.6,,M,,M,,*74
$GPGLL,3854.851,N,07702.455,W,171406.935,V*3B
$GPGSA,A,2,14,12,04,16,17,11,,,,,,,0.2,0.3,0.9*38
$GPGSV,2,1,06,14,57,103,22,12,33,243,31,04,65,298,69,16,72,316,29*7B
$GPGSV,2,2,06,17,11,128,26,11,79,160,65*7C
$GPRMC,171410.935,V,3854.850,N,07702.455,W,67.2,1.73,021116,,E*4C
$GPGGA,171411.935,3854.850,N,07702.455,W,0,04,0.3,,M,,M,,*75
$GPGLL,3854.850,N,07702.455,W,171412.935,V*3F
$GPGSA,A,2,14,12,04,16,17,11,,,,,,,0.8,0.4,0.4*38
$GPGSV,2,1,06,14,28,339,77,12,87,170,22,04,29,093,84,16,67,108,17*70
$GPGSV,2,2,06,17,67,354,81,11,81,052,21*7E
$GPRMC,171416.935,V,3854.848,N,07702.454,W,64.1,1.75,021116,,E*44
$GPGGA,171417.935,3854.848,N,07702.454,W,0,04,0.4,,M,,M,,*7C
$GPGLL,3854.848,N,07702.454,W,171418.935,V*3D
$GPGSA,A,2,14,12,04,16,17,11,,,,,,,1.0,0.9,0.6*3E
$GPGSV,2,1,06,14,30,158,79,12,27,167,71,04,63,290,64,16,25,080,38*73
$GPGSV,2,2,06,17,35,165,25,11,33,025,16*7A
$GPRMC,171422.935,V,3854.846,N,07702.453,W,91.8,1.79,021116,,E*45
$GPGGA,171423.935,3854.846,N,07702.453,W,0,04,0.9,,M,,M,,*7F
$GPGLL,3854.846,N,07702.453,W,171424.935,V*3B
$GPGSA,A,2,14,12,04,16,17,11,,,,,,,1.0,0.8,0.7*3E
$GPGSV,2,1,06,14,64,342,78,12,64,222,18,04,42,123,87,16,20,204,54*74
$GPGSV,2,2,06,17,59,051,26,11,53,138,78*76
$GPRMC,171428.935,V,3854.845,N,07702.452,W,84.0,1.70,021116,,E*48
$GPGGA,171429.935,3854.845,N,07702.452,W,0,04,0.8,,M,,M,,*76
$GPGLL,3854.845,N,07702.452,W,171430.935,V*3C
$GPGSA,A,2,14,12,04,16,17,11,,,,,,,0.5,0.2,0.3*34
$GPGSV,2,1,06,14,78,101,41,12,51,335,40,04,36,214,17,16,54,098,29*79
$GPGSV,2,2,06,17,66,076,72,11,26,029,77*72
$GPRMC,171434.935,V,3854.843,N,07702.452,W,62.2,1.80,021116,,E*46
$GPGGA,171435.935,3854.843,N,07702.452,W,0,04,0.2,,M,,M,,*77
$GPGLL,3854.843,N,07702.452,W,171436.935,V*3C
$GPGSA,A,2,14,12,04,16,17,11,,,,,,,0.5,0.1,0.9*3D
$GPGSV,2,1,06,14,32,246,74,12,65,186,21,04,33,121,25,16,25,005,46*71
$GPGSV,2,2,06,17,84,016,89,11,87,298,61*78
$GPRMC,171440.935,V,3854.841,N,07702.453,W,83.7,2.24,021116,,E*41
$GPGGA,171441.935,3854.841,N,07702.453,W,0,04,0.1,,M,,M,,*74
$GPGLL,3854.841,N,07702.453,W,171442.935,V*3C
$GPGSA,A,2,14,12,04,16,17,11,,,,,,,0.5,0.4,0.5*34
$GPGSV,2,1,06,14,69,323,59,12,61,049,86,04,34,279,60,16,62,181,73*79
$GPGSV,2,2,06,17,77,144,82,11,15,330,68*78
$GPRMC,171446.935,V,3854.840,N,07702.453,W,55.9,2.32,021116,,E*44
$GPGGA,171447.935,3854.840,N,07702.453,W,0,04,0.4,,M,,M,,*76
$GPGLL,3854.840,N,07702.453,W,171448.935,V*37
$GPGSA,A,2,14,12,04,16,17,11,,,,,,,0.1,0.3,0.6*34
$GPGSV,2,1,06,14,18,245,73,12,53,020,78,04,09,332,18,16,18,099,61*70
$GPGSV,2,2,06,17,68,327,40,11,36,018,18*70
$GPRMC,171452.935,V,3854.838,N,07702.454,W,87.2,2.24,021116,,E*4A
$GPGGA,171453.935,3854.838,N,07702.454,W,0,04,0.3,,M,,M,,*7C
$GPGLL,3854.838,N,07702.454,W,171454.935,V*32
$GPGSA,A,2,14,12,04,16,17,11,,,,,,,0.3,0.3,0.6*36
$GPGSV,2,1,06,14,21,076,87,12,60,037,22,04,36,222,54,16,67,236,88*76
$GPGSV,2,2,06,17,71,217,62,11,08,104,84*7E
$GPRMC,171458.935,V,3854.836,N,07702.455,W,28.5,2.31,021116,,E*49
$GPGGA,171459.935,3854.836,N,07702.455,W,0,04,0.3,,M,,M,,*79
$GPGLL,3854.836,N,07702.455,W,171500.935,V*3D
$GPGSA,A,3,14,12,04,16,17,11,,,,,,,0.7,0.7,0.1*30
$GPGSV,2,1,06,14,76,178,60,12,77,139,41,04,55,092,37,16,29,102,80*71
$GPGSV,2,2,06,17,63,150,44,11,78,088,80*7F
$GPRMC,171504.935,V,3854.835,N,07702.456,W,60.6,2.40,021116,,E*48
$GPGGA,171505.935,3854.835,N,07702.456,W,0,04,0.7,,M,,M,,*75
$GPGLL,3854.835,N,07702.456,W,171506.935,V*3B
$GPGSA,A,3,14,12,04,16,17,11,,,,,,,0.2,0.3,0.3*33
$GPGSV,2,1,06,14,41,045,36,12,67,066,29,04,83,257,15,16,37,135,75*7C
$GPGSV,2,2,06,17,26,340,43,11,58,341,54*77
$GPRMC,171510.935,V,3854.834,N,07702.457,W,14.7,2.45,021116,,E*4A
$GPGGA,171511.935,3854.834,N,07702.457,W,0,04,0.3,,M,,M,,*74
$GPGLL,3854.834,N,07702.457,W,171512.935,V*3E
$GPGSA,A,2,14,12,04,16,17,11,,,,,,,0.1,0.1,0.6*36
$GPGSV,2,1,06,14,83,000,58,12,71,191,87,04,74,139,42,16,28,155,21*79
$GPGSV,2,2,06,17,51,040,41,11,63,293,15*75
$GPRMC,171516.935,V,3854.832,N,07702.458,W,26.5,2.44,021116,,E*47
$GPGGA,171517.935,3854.832,N,07702.458,W,0,04,0.1,,M,,M,,*79
$GPGLL,3854.832,N,07702.458,W,171518.935,V*3D
$GPGSA,A,3,14,12,04,16,17,11,,,,,,,0.9,0.3,1.0*3A
$GPGSV,2,1,06,14,67,286,40,12,67,304,64,04,62,011,84,16,89,116,21*78
$GPGSV,2,2,06,17,36,104,80,11,48,228,63*70
$GPRMC,171522.935,V,3854.831,N,07702.459,W,62.7,2.38,021116,,E*4B
$GPGGA,171523.935,3854.831,N,07702.459,W,0,04,0.3,,M,,M,,*7E
$GPGLL,3854.831,N,07702.459,W,171524.935,V*30
$GPGSA,A,2,14,12,04,16,17,11,,,,,,,1.0,0.2,0.7*34
$GPGSV,2,1,06,14,18,076,42,12,25,348,51,04,70,004,81,16,41,203,18*7C
$GPGSV,2,2,06,17,36,190,66,11,60,336,51*70
$GPRMC,171528.935,V,3854.829,N,07702.460,W,1.9,2.44,021116,,E*72
$GPGGA,171529.935,3854.829,N,07702.460,W,0,04,0.2,,M,,M,,*76
$GPGLL,3854.829,N,07702.460,W,171530.935,V*36
$GPGSA,A,3,14,12,04,16,17,11,,,,,,,0.6,0.9,0.9*37
$GPGSV,2,1,06,14,18,275,46,12,47,246,29,04,07,125,81,16,89,197,89*7D
$GPGSV,2,2,06,17,65,315,82,11,67,015,37*76
$GPRMC,171534.935,V,3854.828,N,07702.462,W,39.5,2.51,021116,,E*4F
$GPGGA,171535.935,3854.828,N,07702.462,W,0,04,0.9,,M,,M,,*73
$GPGLL,3854.828,N,07702.462,W,171536.935,V*33
$GPGSA,A,2,14,12,04,16,17,11,,,,,,,0.8,0.7,0.4*3B
$GPGSV,2,1,06,14,18,129,77,12,72,067,20,04,87,067,46,16,45,031,86*7D
$GPGSV,2,2,06,17,37,346,63,11,09,273,79*78
$GPRMC,171540.935,V,3854.827,N,07702.463,W,33.5,2.58,021116,,E*41
$GPGGA,171541.935,3854.827,N,07702.463,W,0,04,0.7,,M,,M,,*70
$GPGLL,3854.827,N,07702.463,W,171542.935,V*3E
$GPGSA,A,2,14,12,04,16,17,11,,,,,,,0.0,0.8,0.9*31
$GPGSV,2,1,06,14,16,188,34,12,62,311,74,04,86,113,85,16,61,264,79*75
$GPGSV,2,2,06,17,24,127,85,11,19,332,48*70
$GPRMC,171546.935,V,3854.826,N,07702.465,W,32.3,2.57,021116,,E*48
$GPGGA,171547.935,3854.826,N,07702.465,W,0,04,0.8,,M,,M,,*7E
$GPGLL,3854.826,N,07702.465,W,171548.935,V*33
$GPGSA,A,2,14,12,04,16,17,11,,,,,,,0.6,0.5,0.7*34
$GPGSV,2,1,06,14,85,350,63,12,21,254,81,04,42,211,73,16,63,072,76*7F
$GPGSV,2,2,06,17,82,123,34,11,35,311,54*70
$GPRMC,171552.935,V,3854.825,N,07702.466,W,70.5,2.50,021116,,E*4A
$GPGGA,171553.935,3854.825,N,07702.466,W,0,04,0.5,,M,,M,,*76
$GPGLL,3854.825,N,07702.466,W,171554.935,V*3E
$GPGSA,A,3,14,12,04,16,17,11,,,,,,,0.6,0.1,0.6*30
$GPGSV,2,1,06,14,66,155,83,12,89,182,89,04,67,139,82,16,32,186,29*7D
$GPGSV,2,2,06,17,60,041,74,11,75,189,88*7B
$GPRMC,171558.935,V,3854.823,N,07702.467,W,41.3,2.43,021116,,E*41
$GPGGA,171559.935,3854.823,N,07702.467,W,0,04,0.1,,M,,M,,*7F
$GPGLL,3854.823,N,07702.467,W,171600.935,V*3B
$GPGSA,A,3,14,12,04,16,17,11,,,,,,,0.2,0.6,0.9*3C
$GPGSV,2,1,06,14,20,161,71,12,48,082,50,04,08,292,83,16,45,290,26*7C
$GPGSV,2,2,06,17,08,175,65,11,64,090,84*76
$GPRMC,171604.935,V,3854.822,N,07702.468,W,88.8,2.50,021116,,E*49
$GPGGA,171605.935,3854.822,N,07702.468,W,0,04,0.6,,M,,M,,*7C
$GPGLL,3854.822,N,07702.468,W,171606.935,V*33
$GPGSA,A,2,14,12,04,16,17,11,,,,,,,0.9,0.3,0.5*3F
$GPGSV,2,1,06,14,79,325,74,12,59,351,78,04,88,327,42,16,23,294,80*72
$GPGSV,2,2,06,17,14,047,61,11,18,111,53*76
$GPRMC,171610.935,V,3854.821,N,07702.469,W,6.7,2.43,021116,,E*75
$GPGGA,171611.935,3854.821,N,07702.469,W,0,04,0.3,,M,,M,,*7E
$GPGLL,3854.821,N,07702.469,W,171612.935,V*34
$GPGSA,A,3,14,12,04,16,17,11,,,,,,,0.4,0.3,0.2*34
$GPGSV,2,1,06,14,77,083,26,12,44,068,61,04,49,310,83,16,40,098,25*79
$GPGSV,2,2,06,17,85,276,22,11,56,199,34*72
$GPRMC,171616.935,V,3854.819,N,07702.471,W,96.2,2.47,021116,,E*49
$GPGGA,171617.935,3854.819,N,07702.471,W,0,04,0.3,,M,,M,,*7A
$GPGLL,3854.819,N,07702.471,W,171618.935,V*3C
$GPGSA,A,2,14,12,04,16,17,11,,,,,,,0.6,0.5,0.3*30
$GPGSV,2,1,06,14,27,300,58,12,24,179,29,04,38,349,55,16,75,015,18*7A
$GPGSV,2,2,06,17,78,232,42,11,78,310,77*7E
$GPRMC,171622.935,V,3854.818,N,07702.472,W,72.7,2.41,021116,,E*45
$GPGGA,171623.935,3854.818,N,07702.472,W,0,04,0.5,,M,,M,,*79
$GPGLL,3854.818,N,07702.472,W,171624.935,V*31
$GPGSA,A,3,14,12,04,16,17,11,,,,,,,0.7,0.1,0.2*35
$GPGSV,2,1,06,14,12,321,88,12,10,020,56,04,22,142,26,16,74,339,89*72
$GPGSV,2,2,06,17,22,056,20,11,28,086,55*7C
$GPRMC,171628.935,V,3854.816,N,07702.473,W,64.4,2.31,021116,,E*43
$GPGGA,171629.935,3854.816,N,07702.473,W,0,04,0.1,,M,,M,,*78
$GPGLL,3854.816,N,07702.473,W,171630.935,V*3B
$GPGSA,A,2,14,12,04,16,17,11,,,,,,,0.7,0.7,0.9*39
$GPGSV,2,1,06,14,31,184,88,12,35,116,37,04,33,320,75,16,31,275,26*77
$GPGSV,2,2,06,17,15,152,42,11,35,255,62*7D
$GPRMC,171634.935,V,3854.815,N,07702.473,W,86.1,2.30,021116,,E*45
$GPGGA,171635.935,3854.815,N,07702.473,W,0,04,0.7,,M,,M,,*70
$GPGLL,3854.815,N,07702.473,W,171636.935,V*3E
$GPGSA,A,3,14,12,04,16,17,11,,,,,,,0.1,0.0,0.3*33
$GPGSV,2,1,06,14,60,335,47,12,07,291,39,04,07,180,64,16,48,335,72*7E
$GPGSV,2,2,06,17,14,121,39,11,66,103,59*7A
$GPRMC,171640.935,V,3854.813,N,07702.473,W,98.6,1.82,021116,,E*42
$GPGGA,171641.935,3854.813,N,07702.473,W,0,04,0.0,,M,,M,,*72
$GPGLL,3854.813,N,07702.473,W,171642.935,V*3B
$GPGSA,A,2,14,12,04,16,17,11,,,,,,,0.3,0.0,0.3*30
$GPGSV,2,1,06,14,27,187,60,12,62,170,28,04,64,253,34,16,41,293,89*71
$GPGSV,2,2,06,17,33,113,78,11,73,004,87*7A
$GPRMC,171646.935,V,3854.811,N,07702.472,W,6.8,1.73,021116,,E*70
$GPGGA,171647.935,3854.811,N,07702.472,W,0,04,0.0,,M,,M,,*77
$GPGLL,3854.811,N,07702.472,W,171648.935,V*32
$GPGSA,A,3,14,12,04,16,17,11,,,,,,,0.8,0.9,0.8*38
$GPGSV,2,1,06,14,10,282,47,12,58,132,81,04,42,143,29,16,19,264,23*75
$GPGSV,2,2,06,17,45,322,84,11,77,009,57*7C
$GPRMC,171652.935,V,3854.810,N,07702.471,W,74.8,1.72,021116,,E*43
$GPGGA,171653.935,3854.810,N,07702.471,W,0,04,0.9,,M,,M,,*79
$GPGLL,3854.810,N,07702.471,W,171654.935,V*3D
$GPGSA,A,2,14,12,04,16,17,11,,,,,,,0.2,0.6,0.7*33
$GPGSV,2,1,06,14,29,032,32,12,34,007,53,04,86,106,85,16,77,008,58*75
$GPGSV,2,2,06,17,26,179,26,11,56,096,66*7A
$GPRMC,171658.935,V,3854.808,N,07702.470,W,8.2,1.61,021116,,E*72
$GPGGA,171659.935,3854.808,N,07702.470,W,0,04,0.6,,M,,M,,*74
$GPGLL,3854.808,N,07702.470,W,171700.935,V*35
$GPGSA,A,3,14,12,04,16,17,11,,,,,,,0.3,0.1,0.6*35
$GPGSV,2,1,06,14,21,211,52,12,16,231,70,04,87,349,34,16,68,131,43*73
$GPGSV,2,2,06,17,27,034,58,11,65,308,84*72
$GPRMC,171704.935,V,3854.806,N,07702.469,W,41.0,1.71,021116,,E*42
$GPGGA,171705.935,3854.806,N,07702.469,W,0,04,0.1,,M,,M,,*7D
$GPGLL,3854.806,N,07702.469,W,171706.935,V*35
$GPGSA,A,2,14,12,04,16,17,11,,,,,,,0.5,0.6,0.8*3B
$GPGSV,2,1,06,14,39,143,18,12,16,184,57,04,10,348,75,16,32,225,43*7B
$GPGSV,2,2,06,17,66,313,76,11,75,342,50*7B
$GPRMC,171710.935,V,3854.805,N,07702.469,W,92.4,1.79,021116,,E*46
$GPGGA,171711.935,3854.805,N,07702.469,W,0,04,0.6,,M,,M,,*7C
$GPGLL,3854.805,N,07702.469,W,171712.935,V*33
$GPGSA,A,3,14,12,04,16,17,11,,,,,,,0.8,0.2,0.4*3F
$GPGSV,2,1,06,14,20,281,72,12,72,266,68,04,38,073,19,16,45,209,59*7D
$GPGSV,2,2,06,17,86,035,57,11,65,209,80*73
$GPRMC,171716.935,V,3854.803,N,07702.468,W,6.8,1.71,021116,,E*7E
$GPGGA,171717.935,3854.803,N,07702.468,W,0,04,0.2,,M,,M,,*79
$GPGLL,3854.803,N,07702.468,W,171718.935,V*3E
$GPGSA,A,2,14,12,04,16,17,11,,,,,,,0.1,0.2,0.8*3B
$GPGSV,2,1,06,14,68,161,53,12,77,294,70,04,64,133,51,16,83,026,44*77
$GPGSV,2,2,06,17,39,300,41,11,83,157,35*7B
$GPRMC,171722.935,V,3854.801,N,07702.467,W,78.4,1.75,021116,,E*45
$GPGGA,171723.935,3854.801,N,07702.467,W,0,04,0.2,,M,,M,,*73
$GPGLL,3854.801,N,07702.467,W,171724.935,V*3C
$GPGSA,A,2,14,12,04,16,17,11,,,,,,,0.7,0.9,0.0*3E
$GPGSV,2,1,06,14,58,145,88,12,19,097,16,04,65,341,72,16,29,003,66*7D
$GPGSV,2,2,06,17,63,023,57,11,87,118,27*7D
$GPRMC,171728.935,V,3854.800,N,07702.467,W,78.0,1.77,021116,,E*48
$GPGGA,171729.935,3854.800,N,07702.467,W,0,04,0.9,,M,,M,,*73
$GPGLL,3854.800,N,07702.467,W,171730.935,V*38
$GPGSA,A,3,14,12,04,16,17,11,,,,,,,0.5,0.7,0.8*3B
$GPGSV,2,1,06,14,06,090,77,12,27,107,46,04,26,275,64,16,12,019,53*7C
$GPGSV,2,2,06,17,21,194,46,11,79,084,33*76
$GPRMC,171734.935,V,3854.798,N,07702.466,W,32.9,1.78,021116,,E*42
$GPGGA,171735.935,3854.798,N,07702.466,W,0,04,0.7,,M,,M,,*7F
$GPGLL,3854.798,N,07702.466,W,171736.935,V*31
$GPGSA,A,3,14,12,04,16,17,11,,,,,,,0.4,0.2,0.0*37
$GPGSV,2,1,06,14,34,313,35,12,33,031,79,04,51,168,38,16,77,289,53*70
$GPGSV,2,2,06,17,64,136,15,11,62,075,46*7F
$GPRMC,171740.935,V,3854.796,N,07702.466,W,53.8,1.86,021116,,E*48
$GPGGA,171741.935,3854.796,N,07702.466,W,0,04,0.2,,M,,M,,*77
$GPGLL,3854.796,N,07702.466,W,171742.935,V*3C
$GPGSA,A,2,14,12,04,16,17,11,,,,,,,0.2,0.1,0.2*31
$GPGSV,2,1,06,14,38,299,18,12,31,164,29,04,33,252,67,16,72,155,57*71
$GPGSV,2,2,06,17,84,018,49,11,48,090,39*7E
$GPRMC,171746.935,V,3854.795,N,07702.466,W,3.6,1.92,021116,,E*73
$GPGGA,171747.935,3854.795,N,07702.466,W,0,04,0.1,,M,,M,,*71
$GPGLL,3854.795,N,07702.466,W,171748.935,V*35
$GPGSA,A,2,14,12,04,16,17,11,,,,,,,0.8,0.9,0.9*38
$GPGSV,2,1,06,14,72,096,69,12,34,048,74,04,72,071,74,16,60,155,71*75
$GPGSV,2,2,06,17,83,186,34,11,81,072,74*75
$GPRMC,171752.935,V,3854.793,N,07702.465,W,25.9,1.84,021116,,E*4F
$GPGGA,171753.935,3854.793,N,07702.465,W,0,04,0.9,,M,,M,,*79
$GPGLL,3854.793,N,07702.465,W,171754.935,V*3D
$GPGSA,A,2,14,12,04,16,17,11,,,,,,,0.6,0.6,0.9*39
$GPGSV,2,1,06,14,52,094,88,12,43,030,22,04,87,010,26,16,82,309,20*7F
$GPGSV,2,2,06,17,40,194,52,11,55,067,65*74
$GPRMC,171758.935,V,3854.791,N,07702.465,W,46.0,1.84,021116,,E*4B
$GPGGA,171759.935,3854.791,N,07702.465,W,0,04,0.6,,M,,M,,*7E
$GPGLL,3854.791,N,07702.465,W,171800.935,V*31
$GPGSA,A,2,14,12,04,16,17,11,,,,,,,0.7,0.4,0.9*3A
$GPGSV,2,1,06,14,15,329,87,12,55,096,54,04,73,263,62,16,76,285,87*72
$GPGSV,2,2,06,17,38,040,79,11,50,070,29*71
$GPRMC,171804.935,V,3854.789,N,07702.464,W,10.8,1.93,021116,,E*48
$GPGGA,171805.935,3854.789,N,07702.464,W,0,04,0.4,,M,,M,,*72
$GPGLL,3854.789,N,07702.464,W,171806.935,V*3F
$GPGSA,A,2,14,12,04,16,17,11,,,,,,,0.4,0.3,0.5*32
$GPGSV,2,1,06,14,39,114,52,12,35,200,69,04,12,269,73,16,27,028,23*7F
$GPGSV,2,2,06,17,63,355,51,11,73,299,69*72
$GPRMC,171810.935,V,3854.788,N,07702.464,W,14.5,1.86,021116,,E*41
$GPGGA,171811.935,3854.788,N,07702.464,W,0,04,0.3,,M,,M,,*71
$GPGLL,3854.788,N,07702.464,W,171812.935,V*3B
$GPGSA,A,2,14,12,04,16,17,11,,,,,,,0.3,0.7,0.5*31
$GPGSV,2,1,06,14,77,179,38,12,45,136,77,04,49,074,37,16,35,067,41*70
$GPGSV,2,2,06,17,58,197,24,11,78,304,80*7D
$GPRMC,171816.935,V,3854.786,N,07702.464,W,25.5,1.96,021116,,E*4A
$GPGGA,171817.935,3854.786,N,07702.464,W,0,04,0.7,,M,,M,,*7D
$GPGLL,3854.786,N,07702.464,W,171818.935,V*3F
$GPGSA,A,2,14,12,04,16,17,11,,,,,,,0.5,0.4,0.1*30
$GPGSV,2,1,06,14,61,319,27,12,06,281,44,04,48,303,86,16,27,040,69*71
$GPGSV,2,2,06,17,46,321,65,11,30,307,82*75
$GPRMC,171822.935,V,3854.784,N,07702.464,W,16.4,1.94,021116,,E*4C
$GPGGA,171823.935,3854.784,N,07702.464,W,0,04,0.4,,M,,M,,*7B
$GPGLL,3854.784,N,07702.464,W,171824.935,V*32
$GPGSA,A,3,14,12,04,16,17,11,,,,,,,0.9,0.0,0.3*3B
$GPGSV,2,1,06,14,67,280,55,12,62,031,31,04,63,028,79,16,77,212,28*7C
$GPGSV,2,2,06,17,82,116,75,11,46,237,36*76
$GPRMC,171828.935,V,3854.782,N,07702.464,W,53.6,1.99,021116,,E*4E
$GPGGA,171829.935,3854.782,N,07702.464,W,0,04,0.0,,M,,M,,*73
$GPGLL,3854.782,N,07702.464,W,171830.935,V*31
$GPGSA,A,2,14,12,04,16,17,11,,,,,,,0.9,0.4,1.0*3C
$GPGSV,2,1,06,14,76,012,73,12,86,286,65,04,38,147,48,16,53,225,61*7F
$GPGSV,2,2,06,17,40,309,29,11,40,117,83*74
$GPRMC,171834.935,V,3854.780,N,07702.464,W,36.1,2.05,021116,,E*43
$GPGGA,171835.935,3854.780,N,07702.464,W,0,04,0.4,,M,,M,,*78
$GPGLL,3854.780,N,07702.464,W,171836.935,V*35
$GPGSA,A,3,14,12,04,16,17,11,,,,,,,0.1,0.6,0.0*36
$GPGSV,2,1,06,14,06,311,20,12,10,106,78,04,54,349,27,16,18,082,41*7B
$GPGSV,2,2,06,17,87,123,85,11,35,262,76*7A
$GPRMC,171840.935,V,3854.779,N,07702.464,W,79.0,2.12,021116,,E*4A
$GPGGA,171841.935,3854.779,N,07702.464,W,0,04,0.6,,M,,M,,*7F
$GPGLL,3854.779,N,07702.464,W,171842.935,V*30
$GPGSA,A,2,14,12,04,16,17,11,,,,,,,0.6,0.3,0.2*37
$GPGSV,2,1,06,14,83,251,33,12,79,077,40,04,69,185,43,16,60,180,63*70
$GPGSV,2,2,06,17,14,049,78,11,33,173,29*70
$GPRMC,171846.935,V,3854.777,N,07702.464,W,48.9,2.01,021116,,E*4B
$GPGGA,171847.935,3854.777,N,07702.464,W,0,04,0.3,,M,,M,,*72
$GPGLL,3854.777,N,07702.464,W,171848.935,V*34
$GPGSA,A,3,14,12,04,16,17,11,,,,,,,1.0,1.0,0.3*32
$GPGSV,2,1,06,14,09,304,28,12,49,096,19,04,34,064,67,16,42,104,74*73
$GPGSV,2,2,06,17,29,043,21,11,16,344,33*72
$GPRMC,171852.935,V,3854.775,N,07702.464,W,36.4,2.03,021116,,E*4A
$GPGGA,171853.935,3854.775,N,07702.464,W,0,04,1.0,,M,,M,,*77
$GPGLL,3854.775,N,07702.464,W,171854.935,V*3B
$GPGSA,A,3,14,12,04,16,17,11,,,,,,,0.5,0.4,0.8*38
$GPGSV,2,1,06,14,41,031,75,12,72,269,86,04,41,012,75,16,54,192,75*77
$GPGSV,2,2,06,17,70,326,25,11,08,301,20*76
$GPRMC,171858.935,V,3854.773,N,07702.464,W,47.0,1.92,021116,,E*4F
$GPGGA,171859.935,3854.773,N,07702.464,W,0,04,0.4,,M,,M,,*7E
$GPGLL,3854.773,N,07702.464,W,171900.935,V*3D
$GPGSA,A,3,14,12,04,16,17,11,,,,,,,0.7,0.7,0.4*35
$GPGSV,2,1,06,14,76,125,48,12,76,270,30,04,74,097,30,16,09,220,86*7C
$GPGSV,2,2,06,17,88,153,85,11,82,191,33*70

